{
    "tool_name": "IsItWater.com",
    "tool_description": "An API to determine if a coordinate is water or land.",
    "title": "IsItWater.com",
    "pricing": "FREEMIUM",
    "score": {
        "avgServiceLevel": 98,
        "avgLatency": 810,
        "avgSuccessRate": 98,
        "popularityScore": 9.8,
        "__typename": "Score"
    },
    "home_url": "https://rapidapi.com/isitwater-isitwater-default/api/isitwater-com/",
    "host": "isitwater-com.p.rapidapi.com",
    "api_list": [
        {
            "name": "Is a coordinate water?",
            "url": "https://isitwater-com.p.rapidapi.com/",
            "description": "Given a latitude and longitude, return if that coordinate on Earth is water.",
            "method": "GET",
            "code": "import requests\n\nurl = \"https://isitwater-com.p.rapidapi.com/\"\nquerystring = {\"longitude\": longitude, \"latitude\": latitude}\n\nheaders = {\n    \"X-RapidAPI-Key\": \"SIGN-UP-FOR-KEY\",\n    \"X-RapidAPI-Host\": \"isitwater-com.p.rapidapi.com\"\n}\n\nresponse = requests.get(url, headers=headers, params=querystring)\n\nprint(response.json())\n",
            "statuscode": 111,
            "body": "",
            "headers": "",
            "schema": "",
            "parameters": [
                {
                    "name": "longitude",
                    "type": "NUMBER",
                    "description": "",
                    "default": "-70.2652276",
                    "required": true
                },
                {
                    "name": "latitude",
                    "type": "NUMBER",
                    "description": "",
                    "default": "41.9029192",
                    "required": true
                }
            ],
            "utterances": [
                {
                    "utterance": "Is the location at longitude -70.2652276 and latitude 41.9029192 water?",
                    "parameters": {
                        "longitude": -70.2652276,
                        "latitude": 41.9029192
                    }
                },
                {
                    "utterance": "Check if the coordinates longitude -122.4194 and latitude 37.7749 are water.",
                    "parameters": {
                        "longitude": -122.4194,
                        "latitude": 37.7749
                    }
                },
                {
                    "utterance": "Is the point at longitude 2.3522 and latitude 48.8566 water?",
                    "parameters": {
                        "longitude": 2.3522,
                        "latitude": 48.8566
                    }
                },
                {
                    "utterance": "Determine if the coordinates longitude 151.2093 and latitude -33.8688 are water.",
                    "parameters": {
                        "longitude": 151.2093,
                        "latitude": -33.8688
                    }
                },
                {
                    "utterance": "Is the location at longitude 139.6917 and latitude 35.6895 water?",
                    "parameters": {
                        "longitude": 139.6917,
                        "latitude": 35.6895
                    }
                },
                {
                    "utterance": "Check if the coordinates longitude -0.1278 and latitude 51.5074 are water.",
                    "parameters": {
                        "longitude": -0.1278,
                        "latitude": 51.5074
                    }
                },
                {
                    "utterance": "Is the point at longitude -74.0060 and latitude 40.7128 water?",
                    "parameters": {
                        "longitude": -74.006,
                        "latitude": 40.7128
                    }
                },
                {
                    "utterance": "Determine if the coordinates longitude 55.2708 and latitude 25.2048 are water.",
                    "parameters": {
                        "longitude": 55.2708,
                        "latitude": 25.2048
                    }
                },
                {
                    "utterance": "Is the location at longitude 77.5946 and latitude 12.9716 water?",
                    "parameters": {
                        "longitude": 77.5946,
                        "latitude": 12.9716
                    }
                },
                {
                    "utterance": "Check if the coordinates longitude -43.1729 and latitude -22.9068 are water.",
                    "parameters": {
                        "longitude": -43.1729,
                        "latitude": -22.9068
                    }
                }
            ]
        }
    ],
    "category": "Location"
}