{
    "name": "webcams.travel",
    "description": "The World's Largest Landscape Webcam API ***** Get webcams by categories, country, region or just nearby your location ***** Get timelapse slideshows for every webcam ***** Get an uncluttered webcam layer for your map",
    "url": "https://rapidapi.com/webcams.travel/api/webcams-travel/",
    "api_methods": [
        {
            "name": "/webcams/list/bbox={ne_lat},{ne_lng},{sw_lat},{sw_lng}",
            "description": "This is a modifier. Returns a list of the webcams in the bounding box given by north-east ({ne_lat},{ne_lng}) and south-west ({sw_lat},{sw_lng}) coordinates. Required: {ne_lat},{ne_lng},{sw_lat},{sw_lng}.",
            "url": "https://webcamstravel.p.rapidapi.com/webcams/list/bbox={ne_lat},{ne_lng},{sw_lat},{sw_lng}",
            "parameters": [
                {
                    "name": "ne_lat",
                    "type": "NUMBER",
                    "description": "North-east WGS84 latitude of the bounding box.",
                    "default": "",
                    "required": true,
                    "constraints": {
                        "values": {
                            "min": -90,
                            "max": 90
                        }
                    }
                },
                {
                    "name": "sw_lng",
                    "type": "NUMBER",
                    "description": "South-west WGS84 longitude of the bounding box.",
                    "default": "",
                    "required": true,
                    "constraints": {
                        "values": {
                            "min": -180,
                            "max": 180
                        }
                    }
                },
                {
                    "name": "sw_lat",
                    "type": "NUMBER",
                    "description": "South-west WGS84 latitude of the bounding box.",
                    "default": "",
                    "required": true,
                    "constraints": {
                        "values": {
                            "min": -90,
                            "max": 90
                        }
                    }
                },
                {
                    "name": "ne_lng",
                    "type": "NUMBER",
                    "description": "North-east WGS84 longitude of the bounding box.",
                    "default": "",
                    "required": true,
                    "constraints": {
                        "values": {
                            "min": -180,
                            "max": 180
                        }
                    }
                },
                {
                    "name": "lang",
                    "type": "STRING",
                    "description": "Localize the results to this language, if available. Default: \"en\".",
                    "default": "en",
                    "required": false,
                    "constraints": {}
                },
                {
                    "name": "show",
                    "type": "STRING",
                    "description": "Content to be listed in the response. Possible values are: \"webcams\", \"categories\", \"continents\", \"countries\", \"regions\", \"properties\". Default is \"webcams\".",
                    "default": "webcams:image,location",
                    "required": false,
                    "constraints": {
                        "values": {
                            "enumerated": [
                                "webcams",
                                "categories",
                                "continents",
                                "countries",
                                "regions",
                                "properties"
                            ]
                        }
                    }
                }
            ],
            "utterances": [
                {
                    "utterance": "Show me webcams in the area from 40.7128\u00b0 N, 74.0060\u00b0 W to 34.0522\u00b0 N, 118.2437\u00b0 W.",
                    "parameters": {
                        "ne_lat": 40.7128,
                        "ne_lng": -74.006,
                        "sw_lat": 34.0522,
                        "sw_lng": -118.2437
                    }
                },
                {
                    "utterance": "Can I see the categories of webcams between 48.8566\u00b0 N, 2.3522\u00b0 E and 41.9028\u00b0 N, 12.4964\u00b0 E?",
                    "parameters": {
                        "ne_lat": 48.8566,
                        "ne_lng": 2.3522,
                        "sw_lat": 41.9028,
                        "sw_lng": 12.4964,
                        "show": "categories"
                    }
                },
                {
                    "utterance": "List all the regions with webcams from 51.5074\u00b0 N, 0.1278\u00b0 W to 55.7558\u00b0 N, 37.6173\u00b0 E.",
                    "parameters": {
                        "ne_lat": 51.5074,
                        "ne_lng": -0.1278,
                        "sw_lat": 55.7558,
                        "sw_lng": 37.6173,
                        "show": "regions"
                    }
                },
                {
                    "utterance": "I want to see webcams in Spanish for the area from 35.6895\u00b0 N, 139.6917\u00b0 E to 37.7749\u00b0 N, 122.4194\u00b0 W.",
                    "parameters": {
                        "ne_lat": 35.6895,
                        "ne_lng": 139.6917,
                        "sw_lat": 37.7749,
                        "sw_lng": -122.4194,
                        "lang": "es"
                    }
                },
                {
                    "utterance": "Find properties of webcams between 34.0522\u00b0 N, 118.2437\u00b0 W and 36.1699\u00b0 N, 115.1398\u00b0 W.",
                    "parameters": {
                        "ne_lat": 34.0522,
                        "ne_lng": -118.2437,
                        "sw_lat": 36.1699,
                        "sw_lng": -115.1398,
                        "show": "properties"
                    }
                },
                {
                    "utterance": "What webcams are available from 52.5200\u00b0 N, 13.4050\u00b0 E to 48.1351\u00b0 N, 11.5820\u00b0 E?",
                    "parameters": {
                        "ne_lat": 52.52,
                        "ne_lng": 13.405,
                        "sw_lat": 48.1351,
                        "sw_lng": 11.582
                    }
                },
                {
                    "utterance": "Show me the countries with webcams from 60.1695\u00b0 N, 24.9354\u00b0 E to 59.3293\u00b0 N, 18.0686\u00b0 E.",
                    "parameters": {
                        "ne_lat": 60.1695,
                        "ne_lng": 24.9354,
                        "sw_lat": 59.3293,
                        "sw_lng": 18.0686,
                        "show": "countries"
                    }
                },
                {
                    "utterance": "List the continents with webcams from 35.6895\u00b0 N, 139.6917\u00b0 E to 34.0522\u00b0 N, 118.2437\u00b0 W.",
                    "parameters": {
                        "ne_lat": 35.6895,
                        "ne_lng": 139.6917,
                        "sw_lat": 34.0522,
                        "sw_lng": -118.2437,
                        "show": "continents"
                    }
                },
                {
                    "utterance": "Can you show me webcams in French for the area from 40.4168\u00b0 N, 3.7038\u00b0 W to 48.8566\u00b0 N, 2.3522\u00b0 E?",
                    "parameters": {
                        "ne_lat": 40.4168,
                        "ne_lng": -3.7038,
                        "sw_lat": 48.8566,
                        "sw_lng": 2.3522,
                        "lang": "fr"
                    }
                },
                {
                    "utterance": "I want to see webcams and their locations from 55.7558\u00b0 N, 37.6173\u00b0 E to 59.9343\u00b0 N, 30.3351\u00b0 E.",
                    "parameters": {
                        "ne_lat": 55.7558,
                        "ne_lng": 37.6173,
                        "sw_lat": 59.9343,
                        "sw_lng": 30.3351,
                        "show": "webcams"
                    }
                }
            ]
        }
    ]
}